{"asiashop":[{"uid":"1053-1","map":"de-fr-asia-shops","type":"asiashop","pinColor":"#4B2971","name":"Li Lai Asia Shop","url":"/zutaten/asialaeden-in-freiburg/#li-lai","address":"Habsburgerstraße 127, 79104 Freiburg  im Breisgau, Deutschland","lat":"47.99913","lng":"7.85344"},{"uid":"1053-2","map":"de-fr-asia-shops","type":"asiashop","pinColor":"#4B2971","name":"Asia Markt Fortune","url":"/zutaten/asialaeden-in-freiburg/#fortune","address":"Bismarckallee 17 7/F, 79098 Freiburg im Breisgau, Deutschland","lat":"47.99882","lng":"7.84273"},{"uid":"1053-3","map":"de-fr-asia-shops","type":"asiashop","pinColor":"#4B2971","name":"Daria Internationale Spezialitäten","url":"/zutaten/asialaeden-in-freiburg/#fortune","address":"Kaiser-Joseph-Straße 268, 79098 Freiburg im Breisgau, Deutschland","lat":"47.99192","lng":"7.84839"},{"uid":"1053-4","map":"de-fr-asia-shops","type":"asiashop","pinColor":"#4B2971","name":"Asia-Afro-Latino Markt","url":"/zutaten/asialaeden-in-freiburg/#asia-afro-latino","address":"An der Mehlwaage 6, 79098 Freiburg im Breisgau, Deutschland","lat":"47.99301","lng":"7.84815"},{"uid":"1053-5","map":"de-fr-asia-shops","type":"asiashop","pinColor":"#4B2971","name":"Go Asia Freiburg","url":"/zutaten/asialaeden-in-freiburg/#goasia","address":"Fahnenbergplatz 3,  79098 Freiburg im Breisgau, Deutschland","lat":"47.99803","lng":"7.84861"}]}